,City,Lat,Lng,Max Temp,Humidity,Cloudiness,Wind Speed,Country,Date
0,bathsheba,13.2167,-59.5167,77.61,83,75,13.8,BB,1644191736
1,lompoc,34.6391,-120.4579,77.09,52,0,11.5,US,1644191737
2,yellowknife,62.456,-114.3525,-1.68,84,75,3.44,CA,1644191517
3,rikitea,-23.1203,-134.9692,79.32,71,3,18.54,PF,1644191718
4,castro,-24.7911,-50.0119,65.37,83,47,1.86,BR,1644191737
5,dandong,40.1292,124.3947,14.72,76,8,4.09,CN,1644191738
6,padang,-0.9492,100.3543,71.65,81,100,2.04,ID,1644191738
7,avarua,-21.2078,-159.775,84.25,74,40,14.97,CK,1644191738
8,dali,25.7,100.1833,33.06,90,7,2.8,CN,1644191739
9,busselton,-33.65,115.3333,60.08,61,70,18.79,AU,1644191720
10,port alfred,-33.5906,26.891,74.84,79,91,6.38,ZA,1644191739
11,tuktoyaktuk,69.4541,-133.0374,-25.6,68,40,12.66,CA,1644191740
12,benjamin aceval,-24.9667,-57.5667,80.74,57,0,2.26,PY,1644191740
13,angoram,-4.0625,144.0661,78.76,91,100,2.01,PG,1644191740
14,cape town,-33.9258,18.4232,65.26,83,20,2.3,ZA,1644191539
15,mataura,-46.1927,168.8643,60.48,40,6,1.07,NZ,1644191493
16,cabo san lucas,22.8909,-109.9124,73.51,63,1,1.01,MX,1644191741
17,preobrazheniye,42.9019,133.9064,12.99,59,25,8.88,RU,1644191741
18,necochea,-38.5473,-58.7368,61.03,74,75,14.63,AR,1644191742
19,khatanga,71.9667,102.5,-15.41,98,99,9.26,RU,1644191742
20,saint-georges,12.0564,-61.7485,78.48,83,20,20.71,GD,1644191742
21,atuona,-9.8,-139.0333,78.76,76,20,18.41,PF,1644191742
22,neiafu,-18.65,-173.9833,75.88,94,100,12.66,TO,1644191743
23,ushuaia,-54.8,-68.3,60.46,63,75,13.8,AR,1644191743
24,ilhabela,-23.7781,-45.3581,77.77,90,100,2.42,BR,1644191743
25,qena,26.1615,32.7183,53.71,46,0,3.98,EG,1644191744
26,shihezi,44.3,86.0333,0.43,85,7,5.12,CN,1644191744
27,avera,33.194,-82.5271,46.71,53,100,6.15,US,1644191744
28,kodiak,57.79,-152.4072,35.37,69,99,7.16,US,1644191745
29,faanui,-16.4833,-151.75,81.66,74,94,20.27,PF,1644191745
30,bluff,-46.6,168.3333,60.8,62,1,11.01,NZ,1644191745
31,hobart,-42.8794,147.3294,73.02,51,20,1.99,AU,1644191517
32,hermanus,-34.4187,19.2345,64.9,95,21,3.29,ZA,1644191746
33,saint-philippe,-21.3585,55.7679,76.59,83,99,13.31,RE,1644191746
34,marsa matruh,31.3525,27.2453,48.4,81,0,5.75,EG,1644191747
35,punta arenas,-53.15,-70.9167,53.71,82,75,10.36,CL,1644191747
36,ostrovnoy,68.0531,39.5131,12.81,88,90,20.83,RU,1644191747
37,albany,42.6001,-73.9662,21.63,74,62,3.65,US,1644191520
38,sitka,57.0531,-135.33,40.91,95,100,9.31,US,1644191740
39,severo-yeniseyskiy,60.3725,93.0408,3.31,99,100,2.51,RU,1644191748
40,dunmore town,25.5,-76.65,74.44,67,13,13.89,BS,1644191748
41,puerto del rosario,28.5004,-13.8627,65.95,82,18,18.41,ES,1644191749
42,maumere,-8.6199,122.2111,82.74,76,14,7.27,ID,1644191749
43,airai,-8.9266,125.4092,68.97,74,71,1.21,TL,1644191749
44,barrow,71.2906,-156.7887,-30.75,96,38,11.23,US,1644191750
45,nikolskoye,59.7035,30.7861,35.87,93,100,11.05,RU,1644191750
46,broome,42.2506,-75.833,24.91,75,38,1.99,US,1644191810
47,clyde river,70.4692,-68.5914,-34.37,61,0,11.5,CA,1644191749
48,great bend,38.3645,-98.7648,45.03,42,43,8.72,US,1644191811
49,puerto ayora,-0.7393,-90.3518,75.54,90,36,4.0,EC,1644191811
50,lebu,-37.6167,-73.65,60.48,88,0,13.73,CL,1644191812
51,georgetown,5.4112,100.3354,76.95,97,40,3.0,MY,1644191680
52,saint george,37.1041,-113.5841,61.27,17,0,4.38,US,1644191812
53,iqaluit,63.7506,-68.5145,-36.31,65,0,5.01,CA,1644191812
54,husavik,66.0449,-17.3389,21.11,92,99,10.11,IS,1644191632
55,kapaa,22.0752,-159.319,78.19,72,18,3.0,US,1644191813
56,hilo,19.7297,-155.09,73.8,91,54,1.99,US,1644191813
57,port hedland,-20.3167,118.5667,78.85,100,40,3.44,AU,1644191814
58,shingu,33.7333,135.9833,38.91,51,18,7.4,JP,1644191814
59,tuatapere,-46.1333,167.6833,60.82,47,1,6.15,NZ,1644191814
60,qaanaaq,77.484,-69.3632,-12.98,59,31,8.28,GL,1644191814
61,sinjar,36.3209,41.8754,42.3,53,83,2.51,IQ,1644191815
62,puerto escondido,15.85,-97.0667,79.95,69,2,3.29,MX,1644191552
63,pevek,69.7008,170.3133,-23.33,98,21,0.81,RU,1644191745
64,komsomolskiy,40.4272,71.7189,38.12,87,75,4.61,UZ,1644191816
65,puerto colombia,10.9878,-74.9547,80.69,82,2,24.0,CO,1644191816
66,gari,59.4307,62.3497,8.33,95,100,7.07,RU,1644191816
67,elban,50.1018,136.5094,-1.77,95,99,3.33,RU,1644191816
68,mayya,61.7333,130.2811,-36.69,100,100,2.44,RU,1644191817
69,bizhbulyak,53.6967,54.2642,11.62,97,100,1.68,RU,1644191817
70,altagracia de orituco,9.8601,-66.3814,73.49,78,47,7.07,VE,1644191818
71,vaini,-21.2,-175.2,77.16,94,100,11.5,TO,1644191800
72,high level,58.5169,-117.136,37.78,77,53,8.75,CA,1644191722
73,kharan,28.5833,65.4167,56.39,24,32,12.53,PK,1644191818
74,puerto ayacucho,5.6639,-67.6236,89.38,59,92,5.3,VE,1644191818
75,santa marta,11.2408,-74.199,86.05,58,20,16.11,CO,1644191736
76,darovskoy,58.77,47.9564,17.35,96,100,1.23,RU,1644191819
77,longyearbyen,78.2186,15.6401,19.24,68,20,12.66,SJ,1644191802
78,port elizabeth,-33.918,25.5701,72.1,73,0,4.61,ZA,1644191676
79,yulara,-25.2406,130.9889,76.84,36,0,8.05,AU,1644191820
80,jamestown,42.097,-79.2353,30.72,46,0,5.99,US,1644191639
81,pandharpur,17.6667,75.3333,69.19,39,91,7.05,IN,1644191820
82,mount isa,-20.7333,139.5,83.97,54,43,10.36,AU,1644191821
83,batagay,67.6333,134.6333,-35.86,96,100,2.08,RU,1644191821
84,berlevag,70.8578,29.0864,19.31,87,37,19.46,NO,1644191799
85,la ronge,55.1001,-105.2842,12.45,79,100,8.05,CA,1644191559
86,uruzgan,32.8333,66.0,34.95,51,0,5.88,AF,1644191822
87,ballina,-28.8667,153.5667,71.78,78,75,12.66,AU,1644191822
88,labuhan,-6.8844,112.2051,79.25,85,100,5.23,ID,1644191822
89,leningradskiy,69.3833,178.4167,-24.29,99,30,3.13,RU,1644191823
90,bethanien,-26.502,17.1583,73.38,61,98,4.56,NA,1644191823
91,aswan,24.0934,32.907,52.9,37,0,8.05,EG,1644191883
92,bilma,18.6853,12.9164,60.22,17,0,8.1,NE,1644191884
93,guanhaes,-18.775,-42.9325,66.31,97,100,2.84,BR,1644191884
94,sinnamary,5.3833,-52.95,77.85,87,100,9.08,GF,1644191885
95,kaniama,-7.5667,24.1833,65.52,96,100,3.24,CD,1644191885
96,thompson,55.7435,-97.8558,-5.64,65,75,3.44,CA,1644191885
97,sobolevo,54.4299,31.8996,30.24,97,100,14.47,RU,1644191860
98,butaritari,3.0707,172.7902,82.36,75,51,15.37,KI,1644191886
99,tiznit,29.5833,-9.5,61.34,33,5,3.18,MA,1644191886
100,flinders,-34.5833,150.8552,71.19,70,68,11.99,AU,1644191886
101,coquimbo,-29.9533,-71.3436,64.13,82,40,8.05,CL,1644191596
102,magole,-6.3667,37.3667,72.43,97,100,1.77,TZ,1644191887
103,vardo,70.3705,31.1107,23.25,81,78,19.48,NO,1644191639
104,ahipara,-35.1667,173.1667,76.66,92,96,7.34,NZ,1644191609
105,havre-saint-pierre,50.2334,-63.5986,6.8,64,20,6.91,CA,1644191887
106,erenhot,43.6475,111.9767,1.27,87,5,5.06,CN,1644191888
107,samarai,-10.6167,150.6667,85.23,66,100,9.62,PG,1644191888
108,kabanjahe,3.1001,98.4908,63.36,93,96,2.73,ID,1644191888
109,mar del plata,-38.0023,-57.5575,66.09,80,75,3.0,AR,1644191889
110,sigli,5.3848,95.9609,74.66,92,100,3.4,ID,1644191599
111,byron bay,-28.65,153.6167,72.88,63,89,17.0,AU,1644191890
112,isla vista,34.4133,-119.861,79.27,31,0,1.99,US,1644191890
113,east london,-33.0153,27.9116,72.57,84,49,14.74,ZA,1644191890
114,belyy yar,53.6039,91.3903,-7.71,84,100,2.24,RU,1644191891
115,arraial do cabo,-22.9661,-42.0278,80.46,78,40,13.8,BR,1644191891
116,kudahuvadhoo,2.6708,72.8944,81.12,65,73,10.94,MV,1644191891
117,san lorenzo,-25.3333,-57.5333,79.74,44,0,6.91,PY,1644191891
118,dikson,73.5069,80.5464,-15.39,98,96,14.25,RU,1644191673
119,matara,5.9485,80.5353,74.34,88,94,4.54,LK,1644191892
120,prince rupert,54.3161,-130.3201,48.29,66,100,18.41,CA,1644191603
121,namatanai,-3.6667,152.4333,85.14,65,41,5.66,PG,1644191892
122,miri,4.4148,114.0089,75.34,100,40,0.0,MY,1644191893
123,kavieng,-2.5744,150.7967,83.43,71,45,2.51,PG,1644191600
124,ust-koksa,50.2696,85.6108,-5.42,82,49,1.1,RU,1644191893
125,provideniya,64.3833,-173.3,3.31,66,0,6.71,RU,1644191894
126,manavalakurichi,8.1333,77.3,77.09,81,72,6.02,IN,1644191894
127,rio gallegos,-51.6226,-69.2181,71.65,37,75,20.71,AR,1644191894
128,alice springs,-23.7,133.8833,76.55,47,0,0.0,AU,1644191815
129,omboue,-1.5746,9.2618,77.49,88,20,6.33,GA,1644191895
130,saint anthony,45.0205,-93.218,14.2,69,100,5.01,US,1644191895
131,progreso,21.2833,-89.6667,72.1,76,25,11.9,MX,1644191896
132,codrington,-38.2667,141.9667,79.03,32,0,5.57,AU,1644191896
133,upernavik,72.7868,-56.1549,-15.84,99,100,9.73,GL,1644191666
134,chuy,-33.6971,-53.4616,64.17,59,5,13.96,UY,1644191896
135,tiksi,71.6872,128.8694,-16.11,99,100,5.28,RU,1644191957
136,kahului,20.8947,-156.47,79.97,73,16,11.99,US,1644191750
137,esperance,-33.8667,121.9,64.24,56,42,25.39,AU,1644191957
138,bambous virieux,-20.3428,57.7575,79.05,89,75,6.91,MU,1644191958
139,burnie,-41.0667,145.9167,63.86,63,13,10.96,AU,1644191958
140,saint-pierre,-21.3393,55.4781,76.68,78,0,5.75,RE,1644191958
141,oktyabrskoye,43.0645,44.7417,28.54,100,99,4.47,RU,1644191959
142,novaya igirma,57.1334,103.9112,9.16,98,100,2.59,RU,1644191959
143,pacific grove,36.6177,-121.9166,70.45,66,0,4.0,US,1644191959
144,alyangula,-13.8483,136.4192,82.27,83,40,5.75,AU,1644191880
145,harper,4.375,-7.7169,79.14,83,88,7.96,LR,1644191960
146,grand gaube,-20.0064,57.6608,79.2,83,90,1.99,MU,1644191960
147,songea,-10.6833,35.65,65.55,94,75,3.44,TZ,1644191961
148,narsaq,60.9167,-46.05,9.14,85,100,0.6,GL,1644191961
149,laguna,38.421,-121.4238,69.66,45,0,1.01,US,1644191961
150,cayenne,4.9333,-52.3333,80.1,86,75,5.01,GF,1644191962
151,manokwari,-0.8667,134.0833,81.54,68,100,2.42,ID,1644191713
152,chimoio,-19.1164,33.4833,69.66,100,75,3.85,MZ,1644191962
153,mitchell,43.7094,-98.0298,30.11,54,19,4.0,US,1644191786
154,hurricane,37.1753,-113.2899,59.34,25,0,6.64,US,1644191963
155,merauke,-8.4667,140.3333,83.48,76,100,5.88,ID,1644191963
156,lagos,6.5833,3.75,80.92,95,29,0.83,NG,1644191899
157,hasaki,35.7333,140.8333,36.28,40,4,11.74,JP,1644191890
158,norman wells,65.282,-126.8329,-12.96,70,100,18.41,CA,1644191964
159,minab,27.1467,57.0801,61.12,77,0,2.3,IR,1644191964
160,valparaiso,-33.0393,-71.6273,66.47,84,75,5.75,CL,1644191867
161,kaka,37.3482,59.6143,36.99,88,100,9.89,TM,1644191965
162,conceicao do araguaia,-8.2578,-49.2647,75.74,89,42,0.96,BR,1644191965
163,srednekolymsk,67.45,153.6833,-35.66,99,57,0.87,RU,1644191965
164,tres palos,18.1833,-101.6167,81.16,42,22,5.03,MX,1644191966
165,talikota,16.4833,76.3167,68.97,53,69,6.46,IN,1644191966
166,richards bay,-28.783,32.0377,70.9,92,40,3.11,ZA,1644191966
167,berezovyy,51.6667,135.7,4.55,95,100,1.23,RU,1644191967
168,fortuna,40.5982,-124.1573,66.42,94,100,10.36,US,1644191894
169,touros,-5.1989,-35.4608,81.5,73,2,11.41,BR,1644191818
170,chokurdakh,70.6333,147.9167,-41.22,100,85,2.62,RU,1644191967
171,ribeira grande,38.5167,-28.7,61.36,84,11,12.62,PT,1644191968
172,mahebourg,-20.4081,57.7,79.09,89,75,6.91,MU,1644191968
173,dunedin,-45.8742,170.5036,62.8,66,56,4.0,NZ,1644191968
174,saldanha,-33.0117,17.9442,64.45,97,20,10.47,ZA,1644191804
175,sola,-13.8833,167.55,83.07,84,100,3.44,VU,1644191969
176,vila franca do campo,37.7167,-25.4333,60.19,85,78,12.53,PT,1644191814
177,lasa,46.6166,10.7002,39.94,85,100,4.7,IT,1644191969
178,durban,-29.8579,31.0292,72.01,93,40,1.99,ZA,1644191970
179,ashtian,34.5217,50.0019,28.51,66,30,5.91,IR,1644191970
180,hami,42.8,93.45,24.51,37,30,7.25,CN,1644191963
181,malakal,9.5334,31.6605,71.4,16,78,8.63,SS,1644192017
182,beringovskiy,63.05,179.3167,-13.74,95,34,5.48,RU,1644192031
183,ponta do sol,32.6667,-17.1,63.23,66,11,10.27,PT,1644192031
184,salalah,17.0151,54.0924,70.66,29,84,16.42,OM,1644192032
185,meulaboh,4.1363,96.1285,74.34,92,100,5.01,ID,1644191809
186,ayan,56.45,138.1667,-0.49,68,91,8.77,RU,1644191741
187,mae hong son,19.3003,97.9685,59.41,98,55,0.83,TH,1644192033
188,savannah bight,16.45,-85.85,78.87,66,22,7.45,HN,1644192034
189,mecca,21.4267,39.8261,64.94,47,1,4.12,SA,1644192012
190,namibe,-15.1961,12.1522,73.67,68,97,10.38,AO,1644192034
191,gat,31.61,34.7642,54.91,100,44,7.05,IL,1644191881
192,vega de alatorre,20.0333,-96.6333,62.4,79,19,1.63,MX,1644192035
193,nacala,-14.5428,40.6728,74.52,87,19,5.03,MZ,1644192035
194,faya,18.3851,42.4509,50.11,73,4,1.79,SA,1644191900
195,joshimath,30.5667,79.5667,38.21,68,44,4.92,IN,1644192036
196,san rafael del sur,11.8485,-86.4384,88.77,46,21,14.0,NI,1644191876
197,vanimo,-2.6741,141.3028,80.17,85,100,3.11,PG,1644192036
198,broken hill,-31.95,141.4333,74.91,41,2,18.41,AU,1644191795
199,muli,2.9167,73.5667,81.32,64,64,9.51,MV,1644192037
200,rio grande,-32.035,-52.0986,67.95,55,51,12.97,BR,1644192038
201,pando,-34.7167,-55.95,65.98,78,70,13.2,UY,1644192038
202,pyinmana,19.7333,96.2167,55.71,65,96,2.15,MM,1644192039
203,geraldton,-28.7667,114.6,71.13,49,40,9.22,AU,1644192039
204,muyezerskiy,63.9333,31.65,22.33,92,100,11.9,RU,1644192039
205,fukue,32.6881,128.8419,44.2,58,98,12.44,JP,1644192040
206,victoria,22.2855,114.1577,60.94,89,100,1.01,HK,1644192010
207,morondava,-20.2833,44.2833,81.0,82,100,23.26,MG,1644192040
208,grindavik,63.8424,-22.4338,32.47,64,100,29.93,IS,1644192040
209,nederland,29.9744,-93.9924,57.24,71,3,5.75,US,1644191940
210,ossora,59.2353,163.0719,10.11,80,100,10.78,RU,1644192041
211,mitrofanovka,49.9708,39.6939,27.36,95,100,10.27,RU,1644192041
212,safakulevo,54.9901,62.5442,-6.7,98,35,3.83,RU,1644192042
213,cherskiy,68.75,161.3,-29.81,100,23,0.76,RU,1644192042
214,bredasdorp,-34.5322,20.0403,61.29,91,2,5.73,ZA,1644192043
215,kaitangata,-46.2817,169.8464,58.93,76,6,6.22,NZ,1644191824
216,kaminoyama,38.1539,140.2736,31.91,73,87,12.95,JP,1644192043
217,carnarvon,-24.8667,113.6333,72.14,58,14,22.82,AU,1644192044
218,nadym,65.5333,72.5167,-17.73,100,82,7.63,RU,1644192044
219,ixtapa,20.7,-105.2,74.23,87,57,5.99,MX,1644192045
220,naze,28.3667,129.4833,53.65,58,100,4.85,JP,1644192045
221,tasiilaq,65.6145,-37.6368,23.16,58,100,49.26,GL,1644192046
222,troitskoye,52.9821,84.6757,-1.68,100,51,3.87,RU,1644192046
223,marrakesh,31.6315,-8.0083,60.87,55,40,4.61,MA,1644192017
224,beloha,-25.1667,45.05,74.25,93,100,15.17,MG,1644192046
225,vila velha,-20.3297,-40.2925,80.55,85,75,5.01,BR,1644191953
226,hithadhoo,-0.6,73.0833,81.99,72,31,14.14,MV,1644192107
227,popova,42.9603,131.7228,-5.71,79,12,5.59,RU,1644192107
228,marawi,7.9986,124.2928,67.64,74,31,2.24,PH,1644192108
229,tubuala,9.5167,-79.0333,81.55,74,6,10.31,PA,1644192108
230,rusera,25.75,86.0333,51.31,82,0,4.27,IN,1644192108
231,tepulco,19.1167,-97.9833,59.85,44,48,8.81,MX,1644192108
232,coxim,-18.5067,-54.76,76.17,89,100,3.85,BR,1644192109
233,new norfolk,-42.7826,147.0587,73.65,39,1,3.0,AU,1644192109
234,rawson,-43.3002,-65.1023,67.46,42,3,16.33,AR,1644191978
235,saint-raymond,45.467,-73.6095,24.15,66,100,10.36,CA,1644192110
236,koslan,63.4564,48.8989,15.03,95,100,6.98,RU,1644192110
237,yumen,40.2833,97.2,11.19,83,61,10.56,CN,1644192110
238,maralal,1.0968,36.698,62.53,53,100,4.21,KE,1644192111
239,lata,40.1629,-8.3327,47.05,65,34,4.03,PT,1644192111
240,lingdong,46.5669,131.1453,1.56,92,60,5.41,CN,1644192111
241,buala,-8.145,159.5921,86.11,70,100,12.06,SB,1644192112
242,luderitz,-26.6481,15.1594,69.35,72,35,7.34,NA,1644192109
243,poum,-20.2333,164.0167,81.93,83,92,19.39,NC,1644192112
244,luebo,-5.35,21.4167,69.55,97,100,1.36,CD,1644192113
245,acarau,-2.8856,-40.12,79.81,79,33,14.07,BR,1644192046
246,mayo,38.8876,-76.5119,34.86,51,100,5.1,US,1644192113
247,aripuana,-9.1667,-60.6333,74.14,96,64,1.63,BR,1644192113
248,pimenta bueno,-11.6725,-61.1936,74.14,97,77,4.65,BR,1644192114
249,vera cruz,-12.6333,-41.0333,71.38,83,100,3.22,BR,1644192065
250,taoudenni,22.6783,-3.9836,67.42,13,13,10.36,ML,1644192114
251,darasun,51.6667,114.0,-3.46,100,72,2.15,RU,1644192115
252,ternate,0.8,127.4,80.87,78,100,7.54,ID,1644192115
253,najran,17.4924,44.1277,53.89,53,61,4.18,SA,1644192115
254,caravelas,-17.7125,-39.2481,77.52,83,8,6.53,BR,1644192116
255,hede,33.7681,120.2517,35.15,72,100,5.35,CN,1644192116
256,pemangkat,1.1667,108.9667,76.84,91,99,7.0,ID,1644192117
257,celestun,20.8667,-90.4,73.31,79,67,14.52,MX,1644192117
258,abay,49.6311,72.8539,17.98,80,71,9.26,KZ,1644192118
259,prieska,-29.6641,22.7474,72.7,57,51,3.11,ZA,1644192118
260,sao filipe,14.8961,-24.4956,72.81,76,1,5.17,CV,1644192119
261,poptun,16.3311,-89.4169,63.79,96,97,2.42,GT,1644192119
262,souillac,-20.5167,57.5167,77.36,87,73,9.13,MU,1644192119
263,port moresby,-9.4431,147.1797,83.05,67,100,5.75,PG,1644192120
264,saskylakh,71.9167,114.0833,-23.35,100,97,2.95,RU,1644192120
265,carman,49.4992,-98.0016,-1.88,98,58,4.54,CA,1644192120
266,seoul,37.5683,126.9778,24.24,76,0,4.61,KR,1644191880
267,leh,34.1667,77.5833,4.17,89,91,0.6,IN,1644191882
268,ugoofaaru,5.6667,73.0,80.1,72,66,6.6,MV,1644192121
269,joura,26.3411,77.8115,52.65,59,0,3.65,IN,1644192121
270,warri,5.5167,5.75,75.92,85,0,3.29,NG,1644192122
271,tahara,34.6667,137.2667,37.35,59,20,13.42,JP,1644192123
272,taft,31.7471,54.2088,39.38,30,0,2.13,IR,1644192183
273,lakewood,39.7047,-105.0814,39.33,42,55,1.01,US,1644192184
274,araouane,18.9048,-3.5265,65.08,11,0,8.61,ML,1644192184
275,kabinda,-6.1333,24.4833,65.32,97,100,2.55,CD,1644192185
276,mitu,1.1983,-70.1733,73.27,94,62,1.52,CO,1644192185
277,tres arroyos,-38.3739,-60.2798,57.2,86,93,7.29,AR,1644192186
278,jalu,29.0331,21.5482,57.18,32,20,6.04,LY,1644192186
279,wawa,9.9022,4.4192,78.69,23,1,5.39,NG,1644192186
280,cumra,37.5732,32.7745,21.34,86,5,1.36,TR,1644192187
281,mount gambier,-37.8333,140.7667,82.08,23,0,8.48,AU,1644192187
282,tomatlan,19.9333,-105.25,81.18,50,29,10.29,MX,1644192188
283,san jeronimito,17.55,-101.3333,85.84,66,0,6.91,MX,1644192188
284,havoysund,70.9963,24.6622,25.68,79,37,16.69,NO,1644192185
285,almeirim,-1.5233,-52.5817,74.05,95,100,4.74,BR,1644192189
286,oktyabrskiy,54.4815,53.471,11.12,97,100,2.68,RU,1644191950
287,lavrentiya,65.5833,-171.0,-10.93,93,15,5.55,RU,1644192189
288,corner brook,48.9667,-57.9484,10.53,85,100,5.84,CA,1644192026
289,sangar,63.9242,127.4739,-37.48,97,95,2.62,RU,1644192116
290,ninghai,29.2892,121.4247,42.73,97,100,2.19,CN,1644192190
291,alabaster,33.2443,-86.8164,46.87,67,0,1.1,US,1644192069
292,lodja,-3.4833,23.4333,69.06,96,100,1.52,CD,1644192191
293,iguape,-24.7081,-47.5553,77.14,90,65,5.59,BR,1644192191
294,port lincoln,-34.7333,135.8667,77.85,49,0,16.93,AU,1644192026
295,cockburn town,21.4612,-71.1419,75.69,70,0,16.06,TC,1644192048
296,malpe,13.35,74.7167,72.7,89,64,5.41,IN,1644192192
297,safaga,26.7292,33.9365,60.64,47,0,14.32,EG,1644192192
298,portland,45.5234,-122.6762,61.34,65,20,1.01,US,1644191450
299,gizo,-8.103,156.8419,85.68,71,100,15.41,SB,1644192192
300,antofagasta,-23.65,-70.4,66.61,79,5,3.09,CL,1644192090
301,svetlogorsk,52.6333,29.7333,32.5,95,100,12.73,BY,1644192193
302,esso,55.9333,158.7,12.79,90,89,2.95,RU,1644192193
303,batie,9.8833,-2.9167,77.4,18,1,1.59,BF,1644192194
304,solnechnyy,50.7214,136.6319,0.1,95,99,2.42,RU,1644192194
305,taiyuan,37.8694,112.5603,19.26,53,0,2.24,CN,1644192103
306,yamada,39.4667,141.95,30.0,51,7,2.62,JP,1644192195
307,kualakapuas,-3.0091,114.3876,75.36,93,99,3.74,ID,1644192195
308,severo-kurilsk,50.6789,156.125,31.41,79,100,11.81,RU,1644192195
309,jacareacanga,-6.2222,-57.7528,73.89,95,97,2.1,BR,1644192196
310,vanavara,60.34,102.2797,-15.7,100,98,0.87,RU,1644192076
311,pangnirtung,66.1451,-65.7125,-35.27,98,100,2.64,CA,1644192186
312,antalaha,-14.9003,50.2788,75.33,88,97,3.76,MG,1644192196
313,ambilobe,-13.2,49.05,73.6,95,95,1.61,MG,1644192197
314,moindou,-21.6924,165.677,84.15,81,92,11.54,NC,1644192197
315,olafsvik,64.8945,-23.7142,29.46,68,100,25.79,IS,1644192109
316,panzhihua,26.5851,101.7128,41.31,90,2,1.45,CN,1644192197
317,horsham,51.064,-0.3272,44.11,69,0,13.8,GB,1644192184
318,champerico,14.3,-91.9167,81.36,67,26,7.0,GT,1644192258
319,ambulu,-8.345,113.6058,78.39,85,100,2.62,ID,1644192258
320,raciborz,50.0919,18.2193,43.61,85,100,15.55,PL,1644192258
321,ilulissat,69.2167,-51.1,1.42,71,20,10.36,GL,1644192259
322,puerto baquerizo moreno,-0.9,-89.6,74.5,76,17,11.21,EC,1644192259
323,malyye derbety,47.9547,44.6808,28.35,93,88,10.27,RU,1644192259
324,zabrisce,43.7925,16.9422,43.29,99,99,7.14,BA,1644192260
325,kieta,-6.2167,155.6333,85.93,67,100,8.3,PG,1644192036
326,alofi,-19.0595,-169.9187,80.2,77,100,13.06,NU,1644192260
327,sao luis de montes belos,-16.525,-50.3722,70.66,93,73,2.46,BR,1644192201
328,jacqueville,5.2052,-4.4146,80.51,85,68,9.78,CI,1644192261
329,tahe,52.3333,124.7333,-8.27,94,36,3.44,CN,1644192261
330,hua hin,12.5707,99.9588,78.01,66,71,4.18,TH,1644192261
331,tchaourou,8.8865,2.5975,77.43,19,0,2.62,BJ,1644192262
332,bethel,41.3712,-73.414,27.0,71,0,4.61,US,1644192195
333,balakhninskiy,58.0106,114.2769,-0.27,100,100,1.63,RU,1644192262
334,road town,18.4167,-64.6167,73.99,75,71,22.1,VG,1644192088
335,palmer,42.1584,-72.3287,24.35,71,100,2.66,US,1644192262
336,ancud,-41.8697,-73.8203,65.73,82,8,4.18,CL,1644191966
337,port huron,42.9709,-82.4249,29.39,70,0,10.0,US,1644192263
338,southbridge,42.0751,-72.0334,24.06,72,100,1.01,US,1644192263
339,smirnykh,49.75,142.8333,9.73,80,87,5.88,RU,1644192263
340,baramati,18.15,74.5833,64.92,55,97,7.25,IN,1644192264
341,tema,5.667,-0.0166,80.89,76,38,6.42,GH,1644192264
342,carutapera,-1.195,-46.02,76.21,93,95,5.44,BR,1644192264
343,haines junction,60.7522,-137.5108,33.39,89,78,9.51,CA,1644192265
344,labuan,5.2767,115.2417,77.16,78,94,11.79,MY,1644192265
345,nuuk,64.1835,-51.7216,9.21,56,75,13.8,GL,1644192265
346,ketchikan,55.3422,-131.6461,46.38,93,100,16.11,US,1644192266
347,waipawa,-41.4122,175.5153,60.93,78,100,11.79,NZ,1644192266
348,soto la marina,23.7667,-98.2167,63.77,66,41,12.19,MX,1644192266
349,atambua,-9.1061,124.8925,79.59,77,42,2.04,ID,1644192110
350,homer,59.6425,-151.5483,30.09,90,100,18.41,US,1644192267
351,guadalajara,20.6667,-103.3333,76.98,24,24,7.0,MX,1644192017
352,torbay,47.6666,-52.7314,13.57,78,100,4.0,CA,1644192268
353,pisco,-13.7,-76.2167,68.02,90,47,5.59,PE,1644192123
354,virginia beach,36.8529,-75.978,39.24,79,82,3.0,US,1644191994
355,tabas,33.5959,56.9244,45.59,38,0,1.9,IR,1644192154
356,brae,60.3964,-1.353,39.11,52,73,35.23,GB,1644192269
357,sao miguel do araguaia,-13.275,-50.1628,73.89,89,94,4.79,BR,1644192044
358,skowhegan,44.7651,-69.7192,18.16,96,74,2.53,US,1644192269
359,hobyo,5.3505,48.5268,76.1,70,78,18.21,SO,1644192043
360,klaksvik,62.2266,-6.589,34.72,54,90,31.23,FO,1644192270
361,shar,49.5886,81.0453,3.76,78,0,6.91,KZ,1644192270
362,karratha,-20.7377,116.8463,86.29,67,28,7.09,AU,1644192269
363,vestmannaeyjar,63.4427,-20.2734,35.47,67,100,36.46,IS,1644192176
364,okhotsk,59.3833,143.3,-3.42,73,97,8.84,RU,1644192330
365,brownsville,25.9018,-97.4975,63.09,75,100,1.01,US,1644192331
366,bandarbeyla,9.4942,50.8122,74.7,74,76,13.4,SO,1644192052
367,coihaique,-45.5752,-72.0662,66.11,73,9,4.23,CL,1644192103
368,nemuro,43.3236,145.575,28.83,73,55,11.61,JP,1644192331
369,raudeberg,61.9875,5.1352,37.87,91,90,3.0,NO,1644192226
370,paredon,16.0333,-93.8667,80.01,52,6,10.94,MX,1644192332
371,abhaynagar,23.0129,89.4049,57.0,65,15,1.66,BD,1644192332
372,belmonte,-15.8631,-38.8828,77.88,85,22,6.62,BR,1644192332
373,cidreira,-30.1811,-50.2056,71.47,72,6,10.98,BR,1644192067
374,qaqortoq,60.7167,-46.0333,9.1,71,100,10.51,GL,1644192250
375,starogard gdanski,53.964,18.5264,41.97,100,100,18.7,PL,1644192333
376,mogadishu,2.0371,45.3438,76.1,79,82,19.75,SO,1644192319
377,chimbote,-9.0853,-78.5783,71.56,76,98,7.7,PE,1644192259
378,sao borja,-28.6606,-56.0044,69.94,34,0,7.63,BR,1644192334
379,hyeres,43.1167,6.1167,52.45,57,0,31.07,FR,1644192256
380,watertown,42.3709,-71.1828,28.17,73,0,1.01,US,1644192334
381,evensk,61.95,159.2333,1.99,71,0,7.76,RU,1644192335
382,ornskoldsvik,63.2909,18.7153,25.75,100,100,3.44,SE,1644192335
383,monte patria,-30.6919,-70.9467,78.37,37,0,5.3,CL,1644192335
384,hay river,60.8156,-115.7999,34.43,82,88,10.29,CA,1644192336
385,korla,41.7597,86.1469,22.01,50,7,3.33,CN,1644192336
386,tabuk,17.4189,121.4443,69.71,95,100,1.36,PH,1644192075
387,villa carlos paz,-31.4241,-64.4978,62.06,34,0,1.01,AR,1644192337
388,roald,62.5833,6.1333,39.34,87,75,14.97,NO,1644192337
389,nanortalik,60.1432,-45.2371,18.61,63,100,34.92,GL,1644192337
390,south lake tahoe,38.9332,-119.9844,51.06,41,0,0.0,US,1644192338
391,poso,-1.3959,120.7524,81.91,69,97,1.43,ID,1644192279
392,narasannapeta,18.4167,84.05,65.44,75,92,4.12,IN,1644192338
393,fez,34.0372,-4.9998,53.85,71,0,3.44,MA,1644192339
394,bitung,1.4451,125.1824,77.85,80,99,10.58,ID,1644192339
395,marsaxlokk,35.8419,14.5431,56.08,87,20,5.75,MT,1644192340
396,aklavik,68.2191,-135.0107,-17.95,91,100,19.15,CA,1644192340
397,mareeba,-17.0,145.4333,81.48,83,74,4.09,AU,1644192341
398,chapais,49.7834,-74.8492,4.78,95,100,6.89,CA,1644192341
399,kruisfontein,-34.0033,24.7314,69.89,64,83,2.35,ZA,1644192341
400,serenje,-13.2325,30.2352,59.04,97,98,1.99,ZM,1644192091
401,wonthaggi,-38.6044,145.5913,78.06,53,1,10.89,AU,1644192342
402,galesong,-5.3166,119.3661,77.02,80,71,9.24,ID,1644192342
403,goderich,43.7501,-81.7165,29.21,85,100,17.63,CA,1644192343
404,kattivakkam,13.2167,80.3167,79.07,76,95,4.74,IN,1644192081
405,harindanga,22.0383,88.3214,58.98,65,90,1.97,IN,1644192343
406,margate,51.3813,1.3862,43.97,68,47,11.99,GB,1644192344
407,asosa,10.0667,34.5333,61.5,29,70,6.26,ET,1644192344
408,bengkulu,-3.8004,102.2655,75.04,88,97,7.67,ID,1644192344
409,san cristobal,7.7669,-72.225,69.71,75,81,1.25,VE,1644192167
410,zhangye,38.9342,100.4517,11.35,80,31,1.59,CN,1644192405
411,exeter,50.7236,-3.5275,47.19,86,21,1.01,GB,1644192405
412,campo grande,-20.4428,-54.6464,74.75,88,75,5.75,BR,1644192406
413,nosy varika,-20.5833,48.5333,76.28,95,100,5.12,MG,1644192406
414,ndele,8.4109,20.6473,69.01,17,56,7.07,CF,1644192406
415,fairbanks,64.8378,-147.7164,-1.39,76,100,0.0,US,1644192407
416,deputatskiy,69.3,139.9,-35.43,98,79,5.28,RU,1644192407
417,la plata,-34.9215,-57.9545,69.98,80,77,10.02,AR,1644192407
418,bonavista,48.6499,-53.1147,14.11,64,97,21.25,CA,1644192282
419,capreol,46.706,-80.9225,26.55,93,100,1.01,CA,1644192299
420,hervey bay,-25.2986,152.8535,75.04,93,49,8.01,AU,1644192342
421,ayagoz,47.9714,80.4392,-9.26,91,5,4.45,KZ,1644192408
422,george,-33.963,22.4617,72.61,43,1,5.84,ZA,1644192408
423,omsukchan,62.5333,155.8,-10.17,73,1,2.04,RU,1644192409
424,saint stephen,50.3333,-4.9,48.47,76,20,20.71,GB,1644192409
425,sehithwa,-20.4667,22.7167,68.47,61,9,6.8,BW,1644192409
426,guerrero negro,27.9769,-114.0611,66.2,28,0,11.32,MX,1644192410
427,londoko,49.0333,131.9833,-5.76,93,63,2.04,RU,1644192410
428,rapid city,44.0805,-103.231,44.46,41,35,5.01,US,1644191818
429,nishihara,26.1842,127.7558,60.08,63,75,6.91,JP,1644192298
430,ilula,-7.6766,36.0366,62.24,92,100,2.01,TZ,1644192411
431,isangel,-19.55,169.2667,81.01,88,100,15.26,VU,1644192244
432,kysyl-syr,63.8986,122.7617,-24.72,98,99,6.93,RU,1644192411
433,sendafa,9.15,39.0333,49.62,89,49,1.61,ET,1644192412
434,sao jose da coroa grande,-8.8978,-35.1478,79.5,74,46,11.39,BR,1644192412
435,betare oya,5.6,14.0833,69.58,27,10,5.64,CM,1644192412
436,bulgan,48.8125,103.5347,-2.7,83,14,3.62,MN,1644192413
437,westport,41.1415,-73.3579,29.05,77,0,5.01,US,1644192413
438,pekan,3.4836,103.3996,75.4,91,100,8.25,MY,1644192413
439,zemio,5.0314,25.1361,65.53,26,71,3.71,CF,1644192414
440,hamilton,39.1834,-84.5333,33.64,76,29,3.24,US,1644192023
441,abu dhabi,24.4667,54.3667,64.96,64,20,4.0,AE,1644192415
442,mvangue,2.9667,11.5167,64.74,39,54,2.15,CM,1644192415
443,khani,41.9563,42.9566,26.17,98,100,1.45,GE,1644192237
444,lianzhou,24.7811,112.3825,51.24,98,100,2.48,CN,1644192415
445,hovd,48.0056,91.6419,-14.55,69,13,3.65,MN,1644192416
446,tianpeng,30.9866,103.9393,35.31,96,90,3.36,CN,1644192416
447,anadyr,64.75,177.4833,-17.9,76,0,8.95,RU,1644192286
448,porcia,45.96,12.6072,44.55,89,100,1.59,IT,1644192417
449,maningrida,-12.0667,134.2667,83.52,69,81,4.12,AU,1644192417
450,constitucion,-35.3333,-72.4167,60.84,76,7,9.13,CL,1644192417
451,olavarria,-36.8927,-60.3225,63.01,86,58,7.47,AR,1644192332
452,gravdal,68.1214,13.5031,34.36,67,100,3.74,NO,1644192418
453,camocim,-2.9022,-40.8411,79.38,83,22,12.21,BR,1644192418
454,port-gentil,-0.7193,8.7815,79.68,83,16,11.21,GA,1644192418
455,la paz,-16.5,-68.15,44.58,100,100,6.91,BO,1644192194
456,kupang,-10.1667,123.5833,82.29,81,56,8.12,ID,1644192448
457,buraydah,26.326,43.975,52.02,44,0,5.61,SA,1644192289
458,santiago del estero,-27.7951,-64.2615,74.71,44,1,6.67,AR,1644192470
459,yenagoa,4.9247,6.2642,76.95,82,0,3.85,NG,1644192479
460,forssa,60.8146,23.6215,30.47,100,82,4.23,FI,1644192479
461,meiganga,6.5167,14.3,64.51,30,13,5.32,CM,1644192480
462,turbat,26.0023,63.044,65.5,90,0,3.02,PK,1644192480
463,corinto,37.9407,22.9573,53.83,83,55,3.2,GR,1644192480
464,umm lajj,25.0213,37.2685,65.48,43,0,15.23,SA,1644192361
465,dhidhdhoo,6.8833,73.1,79.81,72,58,7.36,MV,1644192386
466,lancaster,40.2504,-76.2499,29.93,60,0,1.01,US,1644192277
467,mehamn,71.0357,27.8492,16.5,86,32,13.67,NO,1644192481
468,saint-louis,16.3333,-15.0,79.18,10,0,9.95,SN,1644192482
469,roma,43.2128,-75.4557,26.94,68,0,9.22,US,1644192413
470,kulhudhuffushi,6.6221,73.07,79.88,72,62,7.23,MV,1644192482
471,praia da vitoria,38.7333,-27.0667,60.76,92,34,17.94,PT,1644192482
472,nova borova,50.693,28.6345,31.66,90,94,13.65,UA,1644192483
473,talcahuano,-36.7167,-73.1167,61.05,82,0,8.08,CL,1644192483
474,chicama,-7.8447,-79.1469,68.54,70,96,7.7,PE,1644192483
475,maniitsoq,65.4167,-52.9,4.75,77,100,18.7,GL,1644192484
476,miranda,3.2499,-76.2281,68.07,97,95,1.63,CO,1644192484
477,bayir,37.2687,28.2167,30.72,65,2,2.53,TR,1644192485
478,luwuk,-0.9516,122.7875,81.37,74,100,1.25,ID,1644192439
479,hambantota,6.1241,81.1185,74.25,74,94,7.61,LK,1644192246
480,tatawin,32.9297,10.4518,49.91,98,68,4.9,TN,1644192485
481,ibb,13.9667,44.1833,58.33,66,80,2.3,YE,1644192486
482,le port,-20.9373,55.2919,77.0,77,98,10.0,RE,1644192486
483,sayyan,15.1718,44.3244,49.75,51,33,3.09,YE,1644192487
484,paamiut,61.994,-49.6678,5.36,75,100,20.71,GL,1644192232
485,jumla,29.2747,82.1838,34.2,54,95,4.9,NP,1644192487
486,hermiston,45.8404,-119.2895,59.29,61,0,6.91,US,1644192487
487,gushikawa,26.3544,127.8686,60.03,76,77,8.7,JP,1644192488
488,pathein,16.7833,94.7333,64.53,64,64,6.31,MM,1644192488
489,madisonville,37.3281,-87.4989,37.24,93,35,2.82,US,1644192464
490,deer lake,49.1667,-57.4316,-0.6,98,90,2.75,CA,1644192489
491,marienburg,54.0359,19.0266,42.96,93,100,15.88,PL,1644192490
492,eureka,40.8021,-124.1637,54.12,82,2,3.49,US,1644192490
493,aljezur,37.3191,-8.8033,52.03,69,2,8.57,PT,1644192490
494,lafiagi,8.8667,5.4167,79.97,17,0,3.67,NG,1644192491
495,morwell,-38.2333,146.4,73.35,48,12,7.38,AU,1644192330
496,moa,20.6569,-74.9403,73.98,77,40,11.34,CU,1644192491
497,nyurba,63.2842,118.3319,-4.9,98,100,6.29,RU,1644192492
498,nantucket,41.2835,-70.0995,31.14,67,0,5.75,US,1644192492
499,ransang,8.9603,117.5828,79.66,78,100,5.57,PH,1644192552
500,yatou,37.15,122.3833,29.91,54,92,2.42,CN,1644192553
501,sambava,-14.2667,50.1667,75.38,90,88,4.65,MG,1644192425
502,bilibino,68.0546,166.4372,-13.61,78,11,4.12,RU,1644192553
503,xining,36.6167,101.7667,7.36,93,92,2.77,CN,1644192554
504,medicine hat,50.0501,-110.6683,43.84,64,59,10.47,CA,1644192554
505,veraval,20.9,70.3667,63.82,76,6,8.3,IN,1644192554
506,burla,21.5,83.8667,57.15,37,30,2.75,IN,1644192555
507,aykhal,66.0,111.5,-21.59,99,100,4.94,RU,1644192258
508,tura,25.5198,90.2201,51.13,79,0,3.11,IN,1644192508
509,emerald,-23.5333,148.1667,79.34,48,0,13.67,AU,1644192556
510,kuryk,43.2,51.65,39.45,77,98,9.04,KZ,1644192556
511,santa isabel do rio negro,-0.4139,-65.0192,73.13,94,100,2.89,BR,1644192556
512,kruszwica,52.6756,18.3313,39.31,100,100,19.01,PL,1644192557
513,cochrane,51.1834,-114.4687,35.74,69,68,10.74,CA,1644192557
514,port hueneme,34.1478,-119.1951,81.84,27,20,12.66,US,1644192558
515,farafangana,-22.8167,47.8333,78.31,91,99,13.78,MG,1644192558
516,kisangani,0.5167,25.2,69.24,55,58,0.83,CD,1644192558
517,san quintin,30.4833,-115.95,63.95,34,0,7.0,MX,1644192559
518,bambanglipuro,-7.95,110.2833,77.4,87,100,4.41,ID,1644192559
519,raahe,64.6833,24.4833,32.09,87,58,11.32,FI,1644192559
520,jinchang,38.4953,102.1739,7.72,92,74,3.36,CN,1644192560
521,yairipok,24.6667,94.0667,40.08,93,0,0.6,IN,1644192560
522,phalaborwa,-23.943,31.1411,67.5,87,34,10.02,ZA,1644192560
523,ust-maya,60.4167,134.5333,-34.87,99,95,1.43,RU,1644192561
524,novoagansk,61.9449,76.6625,-9.0,99,12,6.91,RU,1644192561
525,inirida,3.8653,-67.9239,78.87,81,100,2.01,CO,1644192561
526,nassau,40.7507,-73.5829,30.02,75,0,4.0,US,1644192562
527,barcelos,41.5388,-8.6151,50.68,66,43,5.06,PT,1644192562
528,half moon bay,37.4636,-122.4286,70.9,48,0,1.99,US,1644192563
529,basco,20.4487,121.9702,73.09,73,100,25.59,PH,1644192530
530,college,64.8569,-147.8028,-1.71,77,100,3.44,US,1644192563
531,sao joao da barra,-21.6403,-41.0511,77.23,86,0,24.0,BR,1644192563
532,asyut,27.181,31.1837,52.63,53,0,6.35,EG,1644192564
533,ilo,-17.6394,-71.3375,69.24,81,100,3.91,PE,1644192564
534,nokaneng,-19.6667,22.2667,68.79,68,22,6.76,BW,1644192565
535,salinopolis,-0.6136,-47.3561,78.1,88,100,8.52,BR,1644192565
536,tabou,4.423,-7.3528,79.23,82,88,7.47,CI,1644192276
537,turukhansk,65.8167,87.9833,-22.74,100,81,3.49,RU,1644192565
538,shumskiy,54.8318,99.1328,11.88,94,100,1.7,RU,1644192566
539,kavaratti,10.5669,72.642,77.74,68,16,9.84,IN,1644192344
540,kristiansund,63.1115,7.732,36.25,87,75,25.32,NO,1644192560
541,riorges,46.0418,4.0497,49.46,88,100,16.26,FR,1644192567
542,sabha,27.0377,14.4283,55.71,22,66,9.55,LY,1644192344
543,esmeraldas,-19.7625,-44.3139,70.66,98,100,3.65,BR,1644192567
544,san juan,-31.5375,-68.5364,78.39,32,0,10.85,AR,1644192568
545,chengzihe,45.3333,131.0667,-1.14,91,55,3.94,CN,1644192568
546,palauig,15.435,119.9045,79.03,69,74,2.01,PH,1644192568
547,gainesville,29.6516,-82.3248,51.75,91,100,8.05,US,1644192524
548,talnakh,69.4865,88.3972,-28.28,99,56,1.21,RU,1644192629
549,darnah,32.767,22.6367,57.67,52,86,5.95,LY,1644192629
550,timra,62.487,17.3257,19.11,92,75,2.3,SE,1644192629
551,poronaysk,49.2167,143.1167,8.22,81,76,5.08,RU,1644192630
552,sal rei,16.1833,-22.9167,70.21,79,1,15.99,CV,1644192630
553,canto do buriti,-8.11,-42.9444,76.26,77,87,2.82,BR,1644192630
554,biltine,14.5333,20.9167,63.0,16,45,15.7,TD,1644192631
555,sorong,-0.8833,131.25,80.94,80,99,8.59,ID,1644192631
556,vilyuysk,63.7553,121.6247,-17.37,97,100,7.29,RU,1644192631
557,nyirpazony,47.9833,21.8,38.89,76,100,16.6,HU,1644192632
558,kansanshi,-12.0951,26.4273,61.45,98,100,5.28,ZM,1644192632
559,khandyga,62.6667,135.6,-38.34,98,100,1.92,RU,1644192632
560,zhigansk,66.7697,123.3711,-31.94,100,94,4.7,RU,1644192633
561,crnici,43.1289,17.8667,41.99,81,44,5.41,BA,1644192633
562,foumban,5.7291,10.9001,66.34,26,0,4.61,CM,1644192633
563,karaton,-6.3424,106.1045,77.16,92,99,2.86,ID,1644192634
564,muswellbrook,-32.2667,150.9,69.24,61,34,12.57,AU,1644192634
565,juneau,58.3019,-134.4197,40.84,99,100,8.99,US,1644192559
566,marsh harbour,26.5412,-77.0636,74.08,73,76,12.35,BS,1644192635
567,te anau,-45.4167,167.7167,61.68,51,48,2.37,NZ,1644192635
568,tautira,-17.7333,-149.15,86.02,75,72,19.98,PF,1644192635
